[{"type":"{{","value":[["pagebanner"],["Berat banner.jpg"],["unesco=yes"]]},"\n",{"type":"[[","value":[["File:Berat Albania.jpg"],["thumb"],["A view of Berat"]]},"\n",{"type":"'''","value":[{"type":"[","value":["http:\/\/www.bashkia-berat.net\/?lang=en Berat"]}]}," is a city in ",{"type":"[[","value":[["Albania"]]},". In 2008 it was designated as a ",{"type":"[[","value":[["UNESCO World Heritage Site"]]}," as it is a rare example of a well-preserved Ottoman town. It is one of the country's most beautiful towns, and is known as the \"town of a thousand windows\".\n",{"type":"===","value":["Visitor information"]},"\n",{"type":"*","value":[" ",{"type":"{{","value":[["listing"],["name=Berat Tourist Information Center"],["url=http:\/\/visitberat.al"],["email="],["address=Rruga Anipatrea"],["lat=40.7028"],["long=19.9568"],["directions=town center near City Hall"],["phone="],["hours=M-F 08:00-16:00"],["price="],["content="]]}]},"\n",{"type":"==","value":["Get in"]},"\nTake a furgon from ",{"type":"[[","value":[["Tirana"]]}," to Berat (cost: 500 lek), or from other towns make a connection via ",{"type":"[[","value":[["Fier"]]}," (200-250 lek). Buses also run from Tirana to Berat (cost: 400 lek). - To ",{"type":"[[","value":[["Sarandë"]]}," (via ",{"type":"[[","value":[["Gjirokastër"]]},"), departs 8AM and 2PM daily, 6 hours (1000 lek). Buses to major towns in Albania from Berat. Check the board at the bus station for destinations and departure times.\n\n",{"type":"==","value":["Get around"]},"\nThe town is small enough to be toured by foot. Taking a walk on the footpaths of the old town is a must!\n\n",{"type":"==","value":["See"]},"\n",{"type":"*","value":[" ",{"type":"{{","value":[["see"],["name=The castle"],["alt=Kala"],["url="],["email="],["address="],["lat=40.708"],["long=19.946"],["directions="],["phone="],["hours="],["price="],["content=mostly built in the 13th century, but with origins going back to the 4th century BC. A very beautiful place with great views of the surrounding area. Getting to the Kala requires a steep walk up a cobbled path - take care, the stones are worn and slippery. The citadel is still inhabited, with many churches, and there are a couple of bars and shops in the Kala area."]]}]},{"type":"*","value":[" ",{"type":"{{","value":[["see"],["name=Onufri Iconography Museum"],["alt=Muzeu Kombëtar Ikonografik Onufri"],["url=http:\/\/www.beratmuseum.net\/index_onufri_en.htm"],["email="],["address=Rrugica Shën Triadha"],["lat=40.709"],["long=19.945"],["directions=within the Kala"],["phone="],["hours=Closed Mondays"],["price="],["content=at the site of a church, features the vivid iconography works of the famous 16th century painter Onufri and others. The museum hold other artifacts gathered form nearby churches and others around Albania."]]}," "]},{"type":"*","value":[" ",{"type":"{{","value":[["see"],["name=Berat Ethnographic Museum"],["alt="],["url="],["email="],["address=Rruga Andrea Tavanxhiu"],["lat=40.707"],["long=19.950"],["directions=Located in the grounds of a traditional house, on the way up to the castle."],["phone="],["hours="],["price="],["content= It features traditional local furniture and house utensils."]]}]},{"type":"*","value":[" ",{"type":"{{","value":[["see"],["name=Mangalem old town area"],["alt="],["url="],["lat=40.705"],["long=19.950"],["directions=Below the Kala, south of the river"],["content=a traditionally Muslim area"]]}]},{"type":"*","value":[" ",{"type":"{{","value":[["see"],["name=Gorica old town area"],["alt="],["url="],["lat=40.702"],["long=19.947"],["directions=Below the Kala, north of the river"],["content=A traditionally Christian area."]]}]},{"type":"*","value":[" Numerous ",{"type":"'''","value":["Byzantine Churches"]},", dating from the 13th century."]},{"type":"*","value":[" ",{"type":"{{","value":[["see"],["name=St Mary church"],["alt=Kisha e Shën Mari Vllahernes"],["url="],["address=next from Rrugica Panajot Haxhimihali"],["lat=40.709"],["long=19.944"],["directions=within the Kala"],["phone="],["hours="],["price="],["content="]]}]},{"type":"*","value":[" ",{"type":"{{","value":[["see"],["name=Church of St Demetrius"],["alt=Kisha e Shën Mitrit"],["url="],["email="],["address="],["lat=40.707"],["long=19.946"],["directions=within the Kala"],["phone="],["hours="],["price="],["content="]]}]},{"type":"*","value":[" ",{"type":"{{","value":[["see"],["name=Church of St. Theodore"],["alt=Kisha e Shën Todrit"],["url="],["address="],["lat=40.70996"],["long=19.94630"],["directions=Kala northern part"],["phone="],["hours="],["price="],["content="]]}]},{"type":"*","value":[" ",{"type":"{{","value":[["see"],["name=Church of St. Sophia"],["alt=Kisha e Shën Sofisë"],["url="],["email="],["address="],["lat=40.70959"],["long=19.94547"],["directions=within the Kala"],["phone="],["hours="],["price="],["content="]]}]},{"type":"*","value":[" ",{"type":"{{","value":[["see"],["name=Dormition Cathedral"],["alt="],["url="],["email="],["address="],["lat=40.70910"],["long=19.94534"],["directions=Center of the Kala"],["phone="],["hours="],["content="]]}]},{"type":"*","value":[" ",{"type":"{{","value":[["see"],["name=Holy Trinity Church"],["alt="],["url="],["address="],["lat=40.708"],["long=19.944"],["directions=within the Kala"],["phone="],["hours="],["content="]]}]},{"type":"*","value":[" ",{"type":"{{","value":[["see"],["name=Saint Michael Church"],["alt=Kisha e Shën Mëhilli"],["url="],["email="],["address=Rruga e Shën Mëhilli"],["lat=40.70478"],["long=19.94663"],["directions="],["phone="],["hours="],["price="],["content="]]}]},{"type":"*","value":[" ",{"type":"{{","value":[["see"],["name=Cathedral of St. Bitri"],["alt=Katedralja e Shen Bitrit"],["url="],["email="],["address=Rruga Antipatrea and Rruga Rilindja corner"],["lat=40.70239"],["long=19.94685"],["directions="],["phone="],["hours="],["content="]]}]},{"type":"*","value":[" Several ",{"type":"'''","value":["Mosques"]}," from the Ottoman era (starting from 1417)."]},{"type":"*","value":[" ",{"type":"{{","value":[["see"],["name=Sahatit Mosque"],["alt=Clock Mosque, Xhamia e Sahatit"],["url="],["address=Rruga Xhamia e Sahatit"],["lat=40.70626"],["long=19.94024"],["directions="],["phone="],["content="]]}]},{"type":"*","value":[" ",{"type":"{{","value":[["see"],["name=Kuqe Mosque"],["alt=Red Mosque, Xhamia e Kuqe"],["url="],["address=Rrugica Mbrica"],["lat=40.707"],["long=19.945"],["directions=South part of the Kala"],["phone="],["hours="],["price="],["content="]]}]},{"type":"*","value":[" ",{"type":"{{","value":[["see"],["name=Bachelors Mosque"],["alt=Xhamia e Beqareve"],["url="],["email="],["address=Rruga Antipatrea"],["lat=40.7047"],["long=19.9501"],["directions="],["phone="],["hours="],["content="]]}]},{"type":"*","value":[" ",{"type":"{{","value":[["see"],["name=Mbret Mosque"],["alt=King Mosque, Xhamia Mbret"],["url="],["email="],["address=Rruga Mihal Komnena"],["lat=40.7057"],["long=19.9521"],["directions="],["phone="],["hours="],["content="]]}]},{"type":"*","value":[" ",{"type":"{{","value":[["see"],["name=Tekke of Helveti"],["alt=Teqeja e Helvetive"],["url="],["email="],["address="],["lat=40.706"],["long=19.952"],["directions="],["phone="],["hours="],["content="]]}]},{"type":"*","value":[" ",{"type":"{{","value":[["see"],["name=Lead Mosque"],["alt=Xhamia e Plumbit"],["url="],["email="],["address=Rruga Gaqi Gjika"],["lat=40.7046"],["long=19.9555"],["directions="],["phone="],["hours="],["price="],["content="]]}]},"\n",{"type":"===","value":["Further afield"]},"\n",{"type":"*","value":[" ",{"type":"{{","value":[["listing"],["name=Tomorri Mountain"],["alt=Parku Kombëtar Mali i Tomorri"],["url="],["email="],["address="],["lat=40.709"],["long=20.1279"],["directions=E 20 km. Can be reached with 4x4 vehicles"],["phone="],["content=A national park. - At mountain peak a Bektashi Temple is located"]]}]},{"type":"*","value":[" ",{"type":"{{","value":[["listing"],["name=Bogova Waterfall"],["alt=Ujëvara e Bogoves"],["url="],["email="],["address=Bogovë village"],["lat=40.569"],["long=20.146"],["directions=S 30 km between Berat and ",{"type":"[[","value":[["Corovode"]]},"."],["phone="],["hours="],["content="]]}]},{"type":"*","value":[" ",{"type":"{{","value":[["listing"],["name=Osumi River Canyon"],["alt="],["url="],["lat=40.465"],["long=20.263"],["directions=S 58 km. Skrapar District"],["phone="],["hours="],["price="],["content= One of the most beautiful rivers in Albania passing through canyons as high as 100 meters.  ",{"type":"[","value":["http:\/\/www.outdooralbania.com\/ Outdoor Albania"]}," offers a 3 hour rafting experience inside the canyons."]]}]},"\n",{"type":"==","value":["Do"]},"\n",{"type":"*","value":[" Take a walk on the peculiar ",{"type":"'''","value":["Footpaths of The Old Town"]}," featuring exterior flower and plant decorations, tight paths and unique local hospitality."]},{"type":"*","value":[" Visit the ",{"type":"'''","value":[{"type":"[","value":["http:\/\/www.beratartgallery.net Edward Lear Art Gallery"]}]}," and the private studios of local artisans."]},{"type":"*","value":[" Horse ride at ",{"type":"'''","value":[{"type":"[","value":["http:\/\/www.castle-park.com\/ Gorica Hill"]}]},"."]},{"type":"*","value":[" Take a walk along the main ",{"type":"'''","value":["Promenade"]}," at sunset where locals hang out for some fresh air."]},{"type":"*","value":[" ",{"type":"{{","value":[["do"],["name=Cinema"],["alt="],["url="],["email="],["address="],["lat=40.7037"],["long=19.9546"],["directions="],["phone="],["hours="],["price="],["content="]]}]},{"type":"*","value":[" ",{"type":"{{","value":[["do"],["name=Osum Park"],["alt="],["url="],["email="],["address="],["lat=40.7029"],["long=19.9544"],["directions="],["content="]]}]},"\n",{"type":"==","value":["Buy"]},"\n",{"type":"*","value":[" Traditional souvenirs include stone carving, wood cheeping, and textile products."]},"\n",{"type":"==","value":["Eat"]},"\n",{"type":"*","value":[" Rice with turkey-cock (Pilaf me kaposh deti)"]},{"type":"*","value":[" Mont Blanc pastry named after the white peak of Tomorri Mt"]},{"type":"*","value":[" Try the delicious figs and olives of the area."]},"\n",{"type":"*","value":[" There is a traditional restaurant just inside the Kala area that does very good food."]},{"type":"*","value":[" ",{"type":"{{","value":[["eat"],["name=Guva Mangalem Hotel-Bar-Restaurant"],["alt="],["url=http:\/\/guvamangalem.com\/"],["email= info@guvamangalem.com"],["address=Rruga Llambi Guxhumani"],["lat=40.70469"],["long=19.94840"],["directions="],["phone="],["hours="],["price="],["content=Average. - Rooms: Air Conditioning, Room Service, Internet, Bathroom"]]}]},{"type":"*","value":[" ",{"type":"{{","value":[["eat"],["name=Ajka Restaurant"],["url="],["email="],["address="],["lat="],["long="],["directions=across the Osum River"],["phone="],["hours="],["price="],["content=Delicious food with an excellent view."]]}]},"\n",{"type":"==","value":["Drink"]},"\n",{"type":"*","value":[" Try traditional ",{"type":"'''","value":["Raki made from walnuts"]}," (",{"type":"''","value":["Raki me arra"]},"), and peculiar juice made from roses."]},{"type":"*","value":[" ",{"type":"{{","value":[["drink"],["name=Cobo Winery"],["alt="],["url=http:\/\/cobowinery.com"],["email="],["address="],["lat="],["long="],["directions="],["phone="],["tollfree="],["fax="],["hours="],["price="],["content=Features locally made wine and a winery tour."]]}]},"\n",{"type":"==","value":["Sleep"]},"\nAccommodation is mainly in the form of private rooms as many traditional house owners have turned their localities into B&B. Hotels are also available. \n",{"type":"*","value":[" ",{"type":"{{","value":[["sleep"],["name=Berat Backpackers"],["url=http:\/\/beratbackpackers.com"],["email="],["address=295, Gorica"],["lat="],["long="],["directions="],["phone=+355 693064429"],["tollfree="],["fax="],["hours="],["price="],["checkin="],["checkout="],["content=Berat's hostel. Prices from 1350LEK"]]}]},{"type":"*","value":[" ",{"type":"{{","value":[["sleep"],["name=Hotel Mangalemi"],["url=http:\/\/www.mangalemihotel.com"],["email="],["address=Mangalem District"],["lat="],["long="],["directions="],["phone=+355 32 232 093"],["tollfree="],["fax="],["hours="],["price="],["checkin="],["checkout="],["content="]]}]},{"type":"*","value":[" ",{"type":"{{","value":[["sleep"],["name=Hotel Nasho Vruho"],["url=http:\/\/www.hotelnashovruho.com"],["email="],["address=Rr. Llambi Guxhumani, Mangalem District"],["lat="],["long="],["directions="],["phone=+355 32 232355"],["fax="],["hours="],["price="],["checkin="],["checkout="],["content="]]}]},{"type":"*","value":[" ",{"type":"{{","value":[["sleep"],["name=Lorenc Guesthouse & Hostel"],["url="],["email="],["address=Stiljano Bandilli Road, Porta 18"],["lat="],["long="],["directions=cross the old bridge of Gorica, there is the square Alfred Gimitiku and you will see the Road"],["phone=+355 696337254"],["hours="],["price=€12"],["checkin="],["checkout="],["content=Nice private guesthouse in an old quarter of Gorica. It's run by Lorenc and his mother, feels like home."]]}]},{"type":"*","value":[" ",{"type":"{{","value":[["sleep"],["name=Hotel Palma"],["url=http:\/\/brpalmahotel.com"],["email="],["address=Rruga Santa Lucia"],["lat="],["long="],["directions=across the street from the Bachelors' Mosque, near the bridge"],["phone=+355 32 232143"],["fax="],["hours="],["price="],["checkin="],["checkout="],["content=Comfortable air-conditioned room with king size bed for €30 per night, buffet breakfast included. Some of the staff speak English."]]}]},"\n",{"type":"==","value":["Connect"]},"\n\n",{"type":"==","value":["Go next"]},"\n",{"type":"*","value":[" ",{"type":"{{","value":[["listing"],["name=",{"type":"[[","value":[["Tirana"]]}],["alt="],["url="],["lat=41.329"],["long=19.819"],["directions=There are buses"],["content="]]}]},{"type":"*","value":[" ",{"type":"{{","value":[["listing"],["name=",{"type":"[[","value":[["Gjirokastër"]]}],["url="],["lat=40.079"],["long=20.139"],["directions=Take a bus"],["content="]]}]},{"type":"*","value":[" ",{"type":"{{","value":[["listing"],["name=",{"type":"[[","value":[["Sarandë"]]}," via ",{"type":"[[","value":[["Gjirokastër"]]}],["lat=39.873"],["long=20.001"],["directions=departs 8AM and 2PM daily, 6 hours (1000 lek)"],["content="]]}]},{"type":"*","value":[" ",{"type":"{{","value":[["listing"],["name=",{"type":"[[","value":[["Fier"]]}],["alt="],["url="],["address="],["lat=40.725"],["long=19.558"],["directions=West"],["content=If you wish to travel to ",{"type":"[[","value":[["Fier"]]},", it is recommended not to take shortcuts as the direct road between Berat and Fier is in bad shape. Instead, go via ",{"type":"[[","value":[["Lushnjë"]]},"."]]}]},{"type":"*","value":[" ",{"type":"{{","value":[["listing"],["name=",{"type":"[[","value":[["Athens"]]},", ",{"type":"[[","value":[["Greece"]]}],["alt="],["url="],["lat=37.979"],["long=23.729"],["directions=Direct buses"],["content="]]}]},"\n\n",{"type":"{{","value":[["geo"],["40.7000"],["19.9500"]]},"\n\n",{"type":"{{","value":[["IsPartOf"],["Southeastern Albania"]]},"\n",{"type":"{{","value":[["outlinecity"]]},"\n\n",{"type":"{{","value":[["Related"],["UNESCO_World_Heritage_List"]]},"\n\n",{"type":"[[","value":[["WikiPedia:Berat"]]},"\n\n",{"type":"[[","value":[["Commons:Berat"]]}]