[{"type":"{{","value":[["pagebanner"]]},"\n",{"type":"{{","value":[["translate"],["de"],["Wiedensahl"]]},"\n\n",{"type":"'''","value":["Wiedensahl"]}," is a village in the ",{"type":"[[","value":[["Weser Uplands"]]}," in ",{"type":"[[","value":[["Germany"]]},", with 1031 inhabitants.\n\n",{"type":"==","value":["Get in"]},"\n\n",{"type":"==","value":["Get around"]},"\n",{"type":"{{","value":[["Mapframe"],["52.38409"],["9.12003"],["zoom=15"],["height=400"],["width=400"]]},"\n\n",{"type":"==","value":["See"]},"\n\n",{"type":"*","value":[" ",{"type":"{{","value":[["see"],["name=Wilhelm-Busch-Geburtshaus"],["alt="],["url=http:\/\/www.wilhelm-busch-geburtshaus.de"],["email=wilhelm-busch@wiedensahl.de"],["address=Hauptstr. 68a, 31719 Wiedensahl"],["lat=52.38109"],["long=9.12017"],["directions="],["phone=+49 (0)5726 388"],["tollfree="],["fax=+49 (0)5726 921328"],["hours="],["price="],["content="]]}]},{"type":"*","value":[" ",{"type":"{{","value":[["see"],["name=St. Nicolai"],["alt="],["url="],["email="],["address="],["lat=52.38326"],["long=9.11946"],["directions="],["phone="],["tollfree="],["fax="],["hours="],["price="],["content="]]}]},"\n",{"type":"==","value":["Do"]},"\n\n",{"type":"==","value":["Eat"]},"\n",{"type":"*","value":[" ",{"type":"{{","value":[["eat"],["name=Dörp Kaffee"],["alt="],["url="],["email="],["address=Hauptstr. 93"],["lat=52.38439"],["long=9.11959"],["directions="],["phone=05726\/316"],["tollfree="],["fax="],["hours="],["price="],["content="]]}]},{"type":"*","value":[" ",{"type":"{{","value":[["eat"],["name=Busch-Keller"],["alt="],["url="],["email="],["address=Hauptstr. 68"],["lat=52.3811791"],["long=9.1200366"],["directions="],["phone=05726\/488"],["tollfree="],["fax="],["hours="],["price="],["content="]]}]},"\n",{"type":"==","value":["Drink"]},"\n\n",{"type":"==","value":["Sleep"]},"\n",{"type":"*","value":[" ",{"type":"{{","value":[["sleep"],["name=Gaststätte Ronnenberg"],["alt="],["url="],["email="],["address="],["lat=52.38580"],["long=9.11980"],["directions="],["phone="],["tollfree="],["fax="],["price="],["checkin="],["checkout="],["content="]]}]},{"type":"*","value":[" ",{"type":"{{","value":[["sleep"],["name=Pension Hof Meyer"],["alt="],["url="],["email="],["address=Hauptstr. 94"],["lat=52.38456"],["long=9.12016"],["directions="],["phone=05726\/540"],["tollfree="],["fax="],["price="],["checkin="],["checkout="],["content="]]}]},"\n",{"type":"==","value":["Go next"]},"\n\n",{"type":"{{","value":[["outlinecity"]]},"\n",{"type":"{{","value":[["IsPartOf"],["Weser Uplands"]]},"\n",{"type":"[[","value":[["Wikipedia:Wiedensahl"]]},"\n",{"type":"{{","value":[["geo"],["52.38592"],["9.11949"],["zoom=16"]]}]