[{"type":"{{","value":[["pagebanner"],["Pagebanner default.jpg"]]},"\n\n",{"type":"'''","value":["Cheile Nerei-Beușnița National Park"]}," is in the ",{"type":"[[","value":[["Banat"]]}," region of ",{"type":"[[","value":[["Romania"]]},", in ",{"type":"[[","value":[["Caraș-Severin County"]]},".\n\n",{"type":"==","value":["Understand"]},"\n\n",{"type":"===","value":["History"]},"\n\n",{"type":"===","value":["Landscape"]},"\n\n",{"type":"===","value":["Flora and fauna"]},"\n\n",{"type":"===","value":["Climate"]},"\n\n",{"type":"==","value":["Get in"]},"\n\n",{"type":"==","value":["Fees\/Permits"]},"\n\n",{"type":"==","value":["Get around"]},"\n\n",{"type":"==","value":["See"]},"\n",{"type":"[[","value":[["File:Bigar Waterfall, Romania.jpg"],["thumb"],["Bigăr waterfall"]]},"\n\n",{"type":"*","value":[" ",{"type":"{{","value":[["see"],["name=Nera Gorge"],["alt=Cheile Nerei"],["lat=44.8865912"],["long=21.799238"]]}]},{"type":"*","value":[" ",{"type":"{{","value":[["see"],["name=Beușnița Waterfall"],["alt=Cascada Beușnița"],["lat=44.9351195"],["long=21.8032572"]]}]},{"type":"*","value":[" ",{"type":"{{","value":[["see"],["name=Bigăr waterfall"],["alt=Cascada Bigăr"],["lat=45.0034584"],["long=21.9593945"],["content=It is one of the most unusual waterfalls in the world according to The World Geography."]]}]},{"type":"*","value":[" ",{"type":"{{","value":[["see"],["name=Devil's Lake"],["alt=Lacul Dracului"],["lat=44.8643751"],["long=21.8127216"],["content=The lake is dark and scary at first, but it reveals unique images. It is considered a natural monument."]]}]},{"type":"*","value":[" ",{"type":"{{","value":[["see"],["name=Ochiul Beului Lake"],["alt=Lacul Ochiul Beului"],["lat=44.9361007"],["long=21.7903502"]]}]},"\n",{"type":"==","value":["Do"]},"\n\n",{"type":"==","value":["Buy"]},"\n\n",{"type":"==","value":["Eat"]},"\n\n",{"type":"==","value":["Drink"]},"\n\n",{"type":"==","value":["Sleep"]},"\n\n",{"type":"===","value":["Lodging"]},"\n\n",{"type":"===","value":["Camping"]},"\n\n",{"type":"===","value":["Backcountry"]},"\n\n",{"type":"==","value":["Stay safe"]},"\n\n",{"type":"==","value":["Go next"]},"\n\n",{"type":"[[","value":[["wikipedia:Cheile_Nerei-Beușnița_National_Park"]]},"\n",{"type":"{{","value":[["IsPartOf"],["Caraș-Severin County"]]},"\n",{"type":"{{","value":[["outlinepark"]]}]