[{"type":"{{","value":[["pagebanner"],["Itinerary banner.jpg"]]},"\n",{"type":"{{","value":[["itinerary"]]},"\n",{"type":"'''","value":[{"type":"[","value":["http:\/\/www.southernuplandway.gov.uk\/ The Southern Upland Way"]}]}," is an official long-distance walking trail in ",{"type":"[[","value":[["Scotland"]]},".\n\n",{"type":"==","value":["Understand"]}," \n",{"type":"[[","value":[["File:Southern Upland Way Official Opening Plaque (6823232253).jpg"],["thumb"],["Official Opening Plaque"]]},"\n",{"type":"[[","value":[["File:Just to make sure you dont head off in the wrong direction (6782526606).jpg"],["thumb"],["Signposts"]]},"\nThe Way is a waymarked route stretching 212 miles coast-to-coast across Scotland, from ",{"type":"[[","value":[["Portpatrick"]]}," in the extreme south-west of Scotland to ",{"type":"[[","value":[["Cockburnspath"]]}," on Scotland's North Sea coast south of Edinburgh.\n\nIt is a much more demanding route than the popular ",{"type":"[[","value":[["West Highland Way"]]},", since it is longer, crosses the grain of the land with much up-and-down, and visits very remote areas which lack accommodation and amenities thus forcing the walker to carry plenty of kit and provisions.\n\nThe route could be walked in either direction, but most guides including this one go from West to East. This means that he prevailing wind is usually on your back and you are not walking into the setting evening sun.\n\n",{"type":"==","value":["Prepare"]},"\nThis guide can only give a brief overview of the route. There is an official guidebook giving detailed directions, and a set of 1:50000 Ordinance Survey maps are also recommended. \n\nAllow around two weeks to walk the complete route, but it is possible to do any of the sections or just a mile or two as a day walk.\n\n",{"type":"==","value":["Get in"]}," \nThe start at Portpatrick is about file miles from ",{"type":"[[","value":[["Stranraer"]]}," which has rail and coach connections to ",{"type":"[[","value":[["Glasgow"]]}," and is near to ferry connections to ",{"type":"[[","value":[["Belfast"]]},".\n\nFrom Stranraer there are eight buses (",{"type":"[","value":["http:\/\/www.stagecoachbus.com Stagecoach West Scotland 367"]},") per day (Mon-Sat) to Portpatrick 3 buses on a Sunday. \n\n",{"type":"==","value":["Walk"]}," \n",{"type":"{{","value":[["Mapframe"],["55.44"],["-3.44"],["height=400"],["width=800"],["zoom=8"],["layer=MH"],["align=none"]]},"\n\n",{"type":"===","value":["Portpatrick to Castle Kennedy"]},"\n",{"type":"[[","value":[["File:Portpatrick start of southern upland way.JPG"],["thumb"],["Portpatrick start"]]},"\n\n",{"type":"{{","value":[["marker"],["type=listing"],["name=Portpatrick"],["lat=54.84255"],["long=-5.12017"]]}," has several hotels and B&Bs to stay in before you start the walk.\n\n",{"type":"===","value":["Castle Kennedy to New Luce"]},"\n",{"type":"{{","value":[["marker"],["type=listing"],["name=Castle Kennedy"],["lat=54.8965"],["long=-4.9517"]]},"\n\n",{"type":"===","value":["New Luce to Bargrennan"]},"\n",{"type":"{{","value":[["marker"],["type=listing"],["name=New Luce"],["lat=54.9466"],["long=-4.8250"]]},"\n\n",{"type":"===","value":["Bargrennan to Dalry"]},"\n",{"type":"{{","value":[["marker"],["type=listing"],["name=Bargrennan"],["lat=55.05"],["long=-4.5833"]]},"\n\n",{"type":"===","value":["Dalry to Sanquhar"]},"\n",{"type":"{{","value":[["marker"],["type=listing"],["name=St John's Town of Dalry"],["lat=55.106"],["long=-4.165"]]},"\n\n",{"type":"===","value":["Sanquhar to Wanlockhead"]},"\n",{"type":"{{","value":[["marker"],["type=listing"],["name=Sanquhar"],["lat=55.36793"],["long=-3.92463"]]},"\n\n",{"type":"===","value":["Wanlockhead to Beattock"]},"\n",{"type":"{{","value":[["marker"],["type=listing"],["name=Wanlockhead"],["lat=55.397"],["long=-3.777"]]},"\n\n",{"type":"===","value":["Beattock to St Mary's Loch"]},"\n",{"type":"{{","value":[["marker"],["type=listing"],["name=Beattock"],["lat=55.308"],["long=-3.458"]]},"\n\n",{"type":"===","value":["St Mary's Loch to Traquair"]},"\n",{"type":"{{","value":[["marker"],["type=listing"],["name=St Mary's Loch"],["lat=55.494444"],["long=-3.186111"]]},"\n\n",{"type":"===","value":["Traquair to Yair"]},"\n",{"type":"{{","value":[["marker"],["type=listing"],["name=Traquair"],["lat=55.6"],["long=-3.066667"]]},"\n\n",{"type":"===","value":["Yair to Galashiels"]},"\n",{"type":"{{","value":[["marker"],["type=listing"],["name=Yair"],["lat=55.586"],["long=-2.8695"]]},"\n\n",{"type":"===","value":["Galashiels to Melrose"]},"\n",{"type":"{{","value":[["marker"],["type=listing"],["name=Galashiels"],["lat=55.61945"],["long=5-2.80339"]]},"\n\n",{"type":"===","value":["Melrose to Lauder"]},"\n",{"type":"{{","value":[["marker"],["type=listing"],["name=Melrose"],["lat=55.598"],["long=-2.731"]]},"\n\n",{"type":"===","value":["Lauder to Longformacus"]},"\n",{"type":"{{","value":[["marker"],["type=listing"],["name=Lauder"],["lat=55.71936"],["long=-2.74855"]]},"\n\n",{"type":"===","value":["Longformacus to Abbey St Bathans"]},"\n",{"type":"{{","value":[["marker"],["type=listing"],["name=Longformacus"],["lat=55.80782"],["long=-2.49212"]]},"\n\n",{"type":"===","value":["Abbey St Bathans to Cockburnspath"]},"\n",{"type":"{{","value":[["marker"],["type=listing"],["name=Abbey St Bathans"],["lat=55.852"],["long=-2.386"]]},"\n\n",{"type":"{{","value":[["marker"],["type=listing"],["name=Cockburnspath"],["lat=55.93295"],["long=-2.36018"]]},"\n\n",{"type":"==","value":["See"]},"\n",{"type":"[[","value":[["File:A Due Reward (6896146023).jpg"],["thumb"],["A Waymerk"]]},"\n\n",{"type":"'''","value":["Waymerks"]}," are small metal tokens concealed in thirteen \"kists\" hidden along the route as part of a sculpture project. Walkers are invited to keep their eyes peeled for the kists, and may help themselves to a waymerk if they find where they are hidden. Waymerks may be made of lead or copper, or you may be lucky and find one made of silver.\n\n",{"type":"==","value":["Stay safe"]}," \n\nYou're often walking all day on forest paths and may not see anyone on this quiet route. Mobile phone coverage, however, is fairly good since you are not among mountains which would block the signal.\n\n",{"type":"==","value":["Go next"]}," \n\nCockburnspath is not served by rail, the nearest station is at ",{"type":"[[","value":[["Berwick-upon-Tweed"]]},", which is on the East Coast Mainline from ",{"type":"[[","value":[["London"]]}," to ",{"type":"[[","value":[["Edinburgh"]]},". There is a local bus service to Berwick.\n\n",{"type":"{{","value":[["geo"],["55.397"],["-3.777"]]},"\n",{"type":"{{","value":[["related"],["Scotland"]]},"\n",{"type":"{{","value":[["Outlineitinerary"]]},"\n",{"type":"[[","value":[["wikipedia:Southern Upland Way"]]}]