[{"type":"{{","value":[["pagebanner"],["Cologne Rheinauhafen banner.jpg"]]},"\n",{"type":"{{","value":[["itinerary"]]},"\n",{"type":"{{","value":[["Mapframe"],["50.92521"],["6.96625"],["zoom=16"],["width=380"],["height=1200"],["layer=M"]]},"\n\nThis walk can be an interesting complement to exploring ",{"type":"[[","value":[["Cologne"],["Cologne's"]]}," charming Old Town and its waterfront. It'll take you about an hour if you just follow the Rhine, but if you stop and admire each landmark and perhaps have a coffee or lunch in between, it can easily extend to two hours or more. If you wish to visit any of the museums or galleries along the way, add extra time for that.\n\nThe walk, as presented here, is arranged from South to North, ending by the Chocolate Museum, where the original waterfront starts. This orientation is because the southern end of the ",{"type":"''","value":["Rheinauhafen"]}," is in an area slightly remote from the city centre, where it is not that easy to get to and not much happens in the evenings. The idea is to get to the starting point and do the walk by day and end it towards afternoon or evening, with perhaps a lunch in between and visit for a \"dessert\" to the Chocolate Museum, and then further continue to the explore the Old Town in the evening.\n\nYou may, however, decide to start from the Old Town by the Chocolate Museum and continue down south. In that case, just follow the points here in reverse numerical order, but bear in mind that you will end up in a remote part of town and will need to take the ",{"type":"''","value":["U-Bahn"]}," to get back into the city centre.\n\n",{"type":"==","value":["Get in"]},"\nPerhaps the most convenient way to get to the southern end of the ",{"type":"''","value":["Rheinauhafen"]}," is to take the S-bahn to ",{"type":"'''","value":["Ubierring station"]},". It is served by two S-Bahn lines, ",{"type":"'''","value":["15"]}," and ",{"type":"'''","value":["16"]},". 15, for which Ubierring is the southern terminus, goes all around the Ring and then further north up to the suburb of Merkenich. The 16 goes the Altstadt, stopping in. al. at the Hauptbahnhof\/Dom and goes south along the Rhine reaching ",{"type":"[[","value":[["Bonn"]]},". Wherever you are staying in the Cologne area, you'll surely find either a stop for the 15 or 16 close to where you stay, or a convenient transfer to either 15 or 16 from your location.\n",{"type":"*","value":[" ",{"type":"{{","value":[["listing"],["name=Ubierring station"],["alt="],["url="],["email="],["address="],["lat=50.92247"],["long=6.96569"],["directions="],["phone="],["tollfree="],["fax="],["hours="],["price="],["content="]]}]},"\n",{"type":"==","value":["See"]},"\n",{"type":"*","value":[" ",{"type":"{{","value":[["see"],["name=Römerpark"],["alt="],["url="],["email="],["address="],["lat=50.91938"],["long=6.96617"],["directions="],["phone="],["tollfree="],["fax="],["hours="],["price="],["content="]]}]},{"type":"*","value":[" ",{"type":"{{","value":[["see"],["name=Alte Universität"],["alt=Fachhochschule Köln - Campus Südstadt"],["url="],["email="],["address="],["lat=50.91954"],["long=6.96748"],["directions="],["phone="],["tollfree="],["fax="],["hours="],["price="],["content="]]}]},{"type":"*","value":[" ",{"type":"{{","value":[["see"],["name=KAP 686 Skateplaza"],["alt="],["url="],["email="],["address="],["lat=50.91830"],["long=6.97002"],["directions="],["phone="],["tollfree="],["fax="],["hours="],["price="],["content="]]}]},{"type":"*","value":[" ",{"type":"{{","value":[["see"],["name=KAP am Suedkai"],["alt="],["url="],["email="],["address="],["lat=50.91932"],["long=6.96956"],["directions="],["phone="],["tollfree="],["fax="],["hours="],["price="],["content="]]}]},{"type":"*","value":[" ",{"type":"{{","value":[["see"],["name=ECR Offices"],["alt="],["url="],["email="],["address="],["lat=50.92015"],["long=6.96927"],["directions="],["phone="],["tollfree="],["fax="],["hours="],["price="],["content="]]}]},{"type":"*","value":[" ",{"type":"{{","value":[["see"],["name=Silo23"],["alt="],["url="],["email="],["address="],["lat=50.92042"],["long=6.96922"],["directions="],["phone="],["tollfree="],["fax="],["hours="],["price="],["content="]]}]},{"type":"*","value":[" ",{"type":"{{","value":[["see"],["name=Siebengebirge"],["alt="],["url="],["email="],["address="],["lat=50.92126"],["long=6.96874"],["directions="],["phone="],["tollfree="],["fax="],["hours="],["price="],["content="]]}]},{"type":"*","value":[" ",{"type":"{{","value":[["see"],["name=Rheinkontor"],["alt="],["url="],["email="],["address="],["lat=50.92218"],["long=6.96833"],["directions="],["phone="],["tollfree="],["fax="],["hours="],["price="],["content="]]}]},{"type":"*","value":[" ",{"type":"{{","value":[["see"],["name=Elisabeth-Treskow-Platz"],["alt="],["url="],["email="],["address="],["lat=50.92260"],["long=6.96793"],["directions="],["phone="],["tollfree="],["fax="],["hours="],["price="],["content="]]}]},{"type":"*","value":[" ",{"type":"{{","value":[["see"],["name=Rheinbastion"],["alt="],["url="],["email="],["address="],["lat=50.92258"],["long=6.96849"],["directions="],["phone="],["tollfree="],["fax="],["hours="],["price="],["content="]]}]},{"type":"*","value":[" ",{"type":"{{","value":[["see"],["name=baufeld 21"],["alt="],["url="],["email="],["address="],["lat=50.92324"],["long=6.96726"],["directions="],["phone="],["tollfree="],["fax="],["hours="],["price="],["content="]]}]},{"type":"*","value":[" ",{"type":"{{","value":[["see"],["name=rhein3"],["alt="],["url="],["email="],["address="],["lat=50.92305"],["long=6.96792"],["directions="],["phone="],["tollfree="],["fax="],["hours="],["price="],["content="]]}]},{"type":"*","value":[" ",{"type":"{{","value":[["see"],["name=home4"],["alt="],["url="],["email="],["address="],["lat=50.92341"],["long=6.96774"],["directions="],["phone="],["tollfree="],["fax="],["hours="],["price="],["content="]]}]},{"type":"*","value":[" ",{"type":"{{","value":[["see"],["name=Bayenturm"],["alt="],["url="],["email="],["address="],["lat=50.92378"],["long=6.96702"],["directions="],["phone="],["tollfree="],["fax="],["hours="],["price="],["content="]]}]},{"type":"*","value":[" ",{"type":"{{","value":[["see"],["name=Kontor 19"],["alt="],["url="],["email="],["address="],["lat=50.92427"],["long=6.96686"],["directions="],["phone="],["tollfree="],["fax="],["hours="],["price="],["content="]]}]},{"type":"*","value":[" ",{"type":"{{","value":[["see"],["name=Wohnwerft 18.20"],["alt="],["url="],["email="],["address="],["lat=50.92452"],["long=6.96725"],["directions="],["phone="],["tollfree="],["fax="],["hours="],["price="],["content=Two long apartment buildings along the Rhine"]]}]},{"type":"*","value":[" ",{"type":"{{","value":[["see"],["name=Altes Krafthaus"],["alt="],["url="],["email="],["address="],["lat=50.92501"],["long=6.96657"],["directions="],["phone="],["tollfree="],["fax="],["hours="],["price="],["content=Preserved historic warehouse behind the Altes Hafenamt"]]}]},{"type":"*","value":[" ",{"type":"{{","value":[["see"],["name=Altes Hafenamt"],["alt="],["url="],["email="],["address="],["lat=50.92520"],["long=6.96581"],["directions="],["phone="],["tollfree="],["fax="],["hours="],["price="],["content="]]}]},{"type":"*","value":[" ",{"type":"{{","value":[["see"],["name=Harry-Blum-Platz"],["alt="],["url="],["email="],["address="],["lat=50.92559"],["long=6.96619"],["directions="],["phone="],["tollfree="],["fax="],["hours="],["price="],["content="]]}]},{"type":"*","value":[" ",{"type":"{{","value":[["see"],["name=KRANHAUSPlus"],["alt="],["url="],["email="],["address="],["lat=50.92596"],["long=6.96663"],["directions="],["phone="],["tollfree="],["fax="],["hours="],["price="],["content="]]}]},{"type":"*","value":[" ",{"type":"{{","value":[["see"],["name=The Bench"],["alt="],["url="],["email="],["address="],["lat=50.92669"],["long=6.96630"],["directions="],["phone="],["tollfree="],["fax="],["hours="],["price="],["content=Built in 2007 to ",{"type":"[","value":["http:\/\/www.bahl.de\/rheinauhafen-koeln\/bildsuche.html?\/rheinauhafen-koeln\/rheinauhafen-koeln.html designs by Bahl + Partner"]},", this office building houses the European headquarters of computer game company Electronic Arts"]]}]},{"type":"*","value":[" ",{"type":"{{","value":[["see"],["name=Kranhaus 1"],["alt="],["url="],["email="],["address="],["lat=50.92740"],["long=6.96604"],["directions="],["phone="],["tollfree="],["fax="],["hours="],["price="],["content="]]}]},{"type":"*","value":[" ",{"type":"{{","value":[["see"],["name=Pier 15"],["alt="],["url="],["email="],["address="],["lat=50.92731"],["long=6.96393"],["directions="],["phone="],["tollfree="],["fax="],["hours="],["price="],["content=Immediately behind the Kranhaus 1 across the marine are the twin office buildings"]]}]},{"type":"*","value":[" ",{"type":"{{","value":[["see"],["name=Halle 12"],["alt="],["url="],["email="],["address="],["lat=50.92818"],["long=6.96573"],["directions="],["phone="],["tollfree="],["fax="],["hours="],["price="],["content="]]}]},{"type":"*","value":[" ",{"type":"{{","value":[["see"],["name=Kunsthaus Rhenania"],["alt="],["url="],["email="],["address="],["lat=50.92816"],["long=6.96353"],["directions="],["phone="],["tollfree="],["fax="],["hours="],["price="],["content="]]}]},{"type":"*","value":[" ",{"type":"{{","value":[["see"],["name=Pandion Vista"],["alt="],["url="],["email="],["address="],["lat=50.92885"],["long=6.96554"],["directions="],["phone="],["tollfree="],["fax="],["hours="],["price="],["content="]]}]},{"type":"*","value":[" ",{"type":"{{","value":[["see"],["name=RheinauArtOffice"],["alt="],["url="],["email="],["address="],["lat=50.92929"],["long=6.96324"],["directions="],["phone="],["tollfree="],["fax="],["hours="],["price="],["content=The two-part building across the marina houses Microsoft offices."]]}]},{"type":"*","value":[" ",{"type":"{{","value":[["see"],["name=Halle 11"],["alt="],["url="],["email="],["address="],["lat=50.92965"],["long=6.96520"],["directions="],["phone="],["tollfree="],["fax="],["hours="],["price="],["content="]]}]},{"type":"*","value":[" ",{"type":"{{","value":[["see"],["name=Deutsches Sport & Olympia Museum"],["alt="],["url="],["email="],["address="],["lat=50.93109"],["long=6.96468"],["directions="],["phone="],["tollfree="],["fax="],["hours="],["price="],["content="]]}]},{"type":"*","value":[" ",{"type":"{{","value":[["see"],["name=VD-Office Rheinauhafen"],["alt="],["url="],["email="],["address="],["lat=50.93090"],["long=6.96424"],["directions="],["phone="],["tollfree="],["fax="],["hours="],["price="],["content="]]}]},{"type":"*","value":[" ",{"type":"{{","value":[["see"],["name=Chocolate Museum"],["alt="],["url="],["email="],["address="],["lat=50.93190"],["long=6.96454"],["directions="],["phone="],["tollfree="],["fax="],["hours="],["price="],["content="]]}]},{"type":"*","value":[" ",{"type":"{{","value":[["see"],["name=Kölner Drehbrücke"],["alt="],["url="],["email="],["address="],["lat=50.93227"],["long=6.96360"],["directions="],["phone="],["tollfree="],["fax="],["hours="],["price="],["content="]]}]},{"type":"*","value":[" ",{"type":"{{","value":[["see"],["name=Malakoffturm"],["alt="],["url="],["email="],["address="],["lat=50.93272"],["long=6.96358"],["directions="],["phone="],["tollfree="],["fax="],["hours="],["price="],["content="]]}]},{"type":"*","value":[" ",{"type":"{{","value":[["see"],["name=Der Tauzieher"],["alt="],["url="],["email="],["address="],["lat=50.93207"],["long=6.96330"],["directions="],["phone="],["tollfree="],["fax="],["hours="],["price="],["content=A sculpture by Nikolaus Friedrich (1908) right by the ",{"type":"''","value":["Drehbrücke"]}]]}]},"\n",{"type":"==","value":["Sleep"]},"\nYou can get to the ",{"type":"''","value":["Rheinauhafen"]}," easily from any part of Cologne (or even from ",{"type":"[[","value":[["Bonn"]]},"), so there is no particular need to sleep close to here if you want to walk it. But, if you feel a particular affinity to the modern ambiance of the ",{"type":"''","value":["Hafen"]},", you may want to choose any of the hotels directly next to it. Bear in mind, however, that none of the hotels is actually on the ",{"type":"''","value":["Hafen"]}," peninsula or right on the waterfront, so the best you can get may be a view of the rear of the ",{"type":"''","value":["Rheinauhafen"]}," buildings.\n",{"type":"*","value":[" ",{"type":"{{","value":[["sleep"],["name=art'otel"],["alt="],["url=http:\/\/http:\/\/www.artotelcologne.com\/"],["email=acoinfo@pphe.com"],["address=Holzmarkt 4"],["lat=50.93103"],["long=6.96310"],["directions="],["phone=+49 30\/400 55 7700"],["tollfree="],["fax="],["price="],["checkin="],["checkout="],["content=The trendy, modern ",{"type":"''","value":["art'otel"]}," fits the theme of the area really well, and is close to the Chocolate Museum, and the Altstadt as well. Some rooms facing the ",{"type":"''","value":["Rheinauhafen"]}," have glazed balconies \"floating\" over the water. Rooms are appointed in a comforting white-ish theme, there are stained glass windows between bedrooms and bathrooms, and the washbasins are to be found on a long table in your room, where you will also find a Nespresso machine."]]}]},{"type":"*","value":[" ",{"type":"{{","value":[["sleep"],["name=NH Köln City"],["alt="],["url=http:\/\/www.nh-hotels.de\/nh\/de\/hotels\/deutschland\/koln\/nh-koeln-city.html"],["email=nhkoeln@nh-hotels.com"],["address="],["lat=50.93064"],["long=6.96231"],["directions="],["phone=+49 221\/272 28 80"],["tollfree="],["fax="],["price="],["checkin="],["checkout="],["content=Immediately behind the art'otel is the much more standard NH hotel. There is not much in terms of possible views, and do mind that rooms with windows in the direction of ",{"type":"''","value":["Rheinauhafen"]}," actually face the busy ",{"type":"''","value":["Holzmarkt"]}," thoroughfare (and beyond it, the ",{"type":"''","value":["art'otel"]},"). Do not mistake this hotel with another NH hotel in Cologne, the NH Köln Mediapark, which is in a totally different location!"]]}]},{"type":"*","value":[" ",{"type":"{{","value":[["sleep"],["name=Novotel Köln City"],["alt="],["url=http:\/\/www.novotel.de\/"],["email=H3127@accor.com"],["address=Bayenstrasse 51"],["lat=50.92684"],["long=6.96339"],["directions="],["phone=+49 221\/80 14 7-0"],["tollfree="],["fax="],["price="],["checkin="],["checkout="],["content=The Novotel is further south and faces the ",{"type":"''","value":["Pier 15"]}," building across the busy Bayenstrasse. The rooms are very standard Novotel fare."]]}]},"\n",{"type":"{{","value":[["outlineitinerary"]]},"\n",{"type":"[[","value":[["wikipedia:Rheinauhafen"]]}]