[{"type":"{{","value":[["pagebanner"],["Romobanner.jpg"]]},"\n",{"type":"'''","value":[{"type":"[","value":["http:\/\/www.romo.dk\/ Rømø"]}]}," is an island in ",{"type":"[[","value":[["Denmark"]]},"\n",{"type":"[[","value":[["File:SatRoemoe.jpg"],["thumb"],["240px"],["Satellite photo of Rømø"]]},"\n\n",{"type":"==","value":["Understand"]},"\n\nMost visitors to Rømø rent a cottage for one or two weeks. But it is also possible to stay in hotels or Bed & Breakfasts for a day or two. And if you are in South Jutland it is worth it to go to Rømø for a day trip. \n\nThe attraction of Røme is the spectacular nature: the heather, the enormous beaches, the Wadden Sea. \n\n\n",{"type":"==","value":[" Get in "]},"\n\n",{"type":"===","value":["By car"]},"\n\nRømø is connected to mainland by a road running across a causeway.\n\n",{"type":"===","value":["By ferry"]},"\nThere is a ",{"type":"'''","value":[{"type":"[","value":["http:\/\/www.sylt-faerge.dk\/ ferry connection"]}]}," between Havneby port and ",{"type":"[[","value":[["Sylt"]]}," island.\n\n",{"type":"==","value":[" Get around "]},"\n",{"type":"==","value":[" See "]},"\n",{"type":"[[","value":[["Image:Toftum - Old school.jpg"],["thumb"],["Toftum Skole, on of Denmark's oldest and smallest schools"]]},"\n",{"type":"[[","value":[["File:Kommandørgård - Wal 2.jpg"],["thumb"],["Whale skeleton"]]},"\n",{"type":"*","value":[" ",{"type":"{{","value":[["see"],["name=Kommandørgård Museum"],["alt="],["url=http:\/\/natmus.dk\/"],["email="],["address=Juvrevej 60, Toftum"],["lat=55.16629"],["long=8.55543"],["directions="],["phone="],["tollfree="],["fax="],["hours=May - October"],["price= Free entrance"],["tags="],["content=Mansion house ( 1770 ) of the Thaden family."]]}]},"\n",{"type":"*","value":[" ",{"type":"{{","value":[["see"],["name=Toftum School"],["alt="],["url=http:\/\/natmus.dk\/kommandoergaarden\/udstillinger\/toftum-skole\/"],["email="],["address=Juvrevej 56"],["lat=55.1653052"],["long=8.5555768"],["directions=Next to Kommandørgården"],["phone="],["tollfree="],["fax="],["hours="],["price=free entrance"],["content=Tiny old straw-roof school building"]]}]},{"type":"*","value":[" ",{"type":"{{","value":[["see"],["name=Rømø Fuglemuseum"],["alt="],["url=http:\/\/roemoefuglemuseum.123hjemmeside.dk\/"],["email="],["address=Thadesvej 1"],["lat=55.1655839"],["long=8.5539039"],["directions="],["phone="],["tollfree="],["fax="],["hours=May-Oct, Tu-Su: 10-17"],["price=DKK 20"],["content="]]}]},{"type":"*","value":[" ",{"type":"{{","value":[["see"],["name=Naturcenter Tønnisgård"],["alt="],["url=http:\/\/www.tonnisgaard.dk\/"],["email=info@tonnisgaard.dk"],["address=Havnebyvej 30"],["lat=55.14209"],["long=8.54646"],["directions="],["phone=+45 74 75 52 57"],["tollfree="],["fax="],["hours=Mar-Oct Mo-Fr 10.00-16.00; Nov-Mar Mo-We 10.00-15.00"],["price=DKK 15"],["content=Exhibitions on nature and the Wadden Sea. Organized tours in the region."]]}]},{"type":"*","value":[" ",{"type":"{{","value":[["see"],["name=Rømø Mini Museum"],["alt="],["url="],["email="],["address=Havnebyvej 30"],["lat=55.14203"],["long=8.54551"],["directions=Behild Tønnisgård"],["phone="],["tollfree="],["fax="],["hours="],["price="],["content=Tells the history of the Rømø’s formation, from a sandbank to its present size."]]}]},{"type":"[[","value":[["File:Rømø_kirke.jpg"],["thumb"],["Rømø Church"]]},"\n",{"type":"*","value":[" ",{"type":"{{","value":[["see"],["name=Rømø Church"],["alt=Sankt Clemens Kirke"],["url=http:\/\/sogn.dk\/roemoe\/"],["email="],["address=Havnebyvej 152"],["lat=55.1130093"],["long=8.5426936"],["directions="],["phone=+45 74755231"],["tollfree="],["fax="],["hours=Mo-Su: 8.00-16.00"],["price="],["content=Church from 1200. Notice the seven model ships and the hat hooks."]]}]},"\n",{"type":"==","value":[" Do "]},"\n",{"type":"[[","value":[["File:Buggykiting kurs.JPG"],["thumb"],["240px"],["Buggykiting"]]},"\nGo to the beach - it's the largest sand beach in Northern Europe - during low tide it can be 2,5 wide and 8,5 km long.\n\n\n",{"type":"*","value":[" ",{"type":"{{","value":[["do"],["name=Høstbjerg"],["alt="],["url="],["email="],["address="],["lat=55.1571717"],["long=8.5442967"],["directions="],["phone="],["tollfree="],["fax="],["hours="],["price=free"],["content=Climb the highest point on Rømø (19 meters). On a clear day you can see to ",{"type":"[[","value":[["Esbjerg"]]}," in the north and south to the island of ",{"type":"[[","value":[["Sylt"]]},"."]]}]},{"type":"*","value":[" ",{"type":"{{","value":[["do"],["name=Rømø Labyrinth Park"],["alt="],["url=http:\/\/www.rlp.nu\/"],["email="],["address="],["lat=55.08870"],["long=8.55347"],["directions="],["phone="],["tollfree="],["fax="],["hours="],["price=DKK 70"],["content="]]}]},{"type":"*","value":[" ",{"type":"{{","value":[["do"],["name=Rømø Golf Club"],["alt="],["url=http:\/\/www.romo-golfklub.dk\/"],["email="],["address=Vestergade 31"],["lat=55.0803"],["long=8.5544"],["directions="],["phone="],["tollfree="],["fax="],["hours="],["price=DKK 300"],["content="]]}]},"\n",{"type":"*","value":[" ",{"type":"{{","value":[["do"],["name=Rømø Candles"],["alt=Rømø Lys"],["url=http:\/\/www.romolys.dk\/"],["email=info@romolys.dk"],["address=Lakolk Butikscenter 18"],["lat=55.1463726"],["long=8.4976654"],["directions="],["phone=+45 73755151"],["tollfree="],["fax="],["hours="],["price=DKK 5 per 100 grams of candles"],["content=Make your own candles"]]}]},"\n",{"type":"*","value":[" ",{"type":"{{","value":[["do"],["name=Rømø Fishing Lake"],["alt=Rømø Fiskesø"],["url="],["email="],["address=Vestervej 46"],["lat=55.1882642"],["long=8.5602966"],["directions="],["phone=+45 24253945"],["tollfree="],["fax="],["hours=sundawn-sunset"],["price=from €11"],["content=Put and Take"]]}]},"\n",{"type":"*","value":[" ",{"type":"{{","value":[["do"],["name=Windriders"],["alt="],["url=http:\/\/www.windriders.dk\/"],["email=info@windriders.dk"],["address="],["lat=55.0792"],["long=8.5243"],["directions="],["phone=+45 22341385"],["tollfree="],["fax="],["hours=Apr-Oct"],["price="],["content=Blokarts, Kitewings, Traction kites, Kite Buggies and Kite boards on the south Beach."]]}]},"\n",{"type":"*","value":[" ",{"type":"{{","value":[["do"],["name=Pusterummet"],["alt="],["url="],["email=bork31@hotmail.com"],["address=Nordre Havnevej 36"],["lat=55.0872808"],["long=8.5611314"],["directions=Havneby"],["phone=+45 22395430"],["tollfree="],["fax="],["hours="],["price="],["content=Design you own frosted glass"]]}]},"\n",{"type":"==","value":[" Buy "]},"\n",{"type":"*","value":[" ",{"type":"{{","value":[["buy"],["name=Rømø Købmanden"],["alt=Kwik Spar"],["url="],["email="],["address=Havnebyvej 25"],["lat=55.1430774"],["long=8.5471539"],["directions="],["phone="],["tollfree="],["fax="],["hours="],["price="],["content="]]}]},"\n",{"type":"*","value":[" ",{"type":"{{","value":[["buy"],["name=Rømø Bakery"],["alt=Rømø Bageriet"],["url=http:\/\/www.romobageri.dk\/"],["email="],["address=Havnebyvej 214"],["lat=55.0958604"],["long=8.544742"],["directions="],["phone="],["tollfree="],["fax="],["hours="],["price="],["content="]]}]},"\n",{"type":"*","value":[" ",{"type":"{{","value":[["buy"],["name=Rømø Butcher"],["alt=Rømø Slagteren"],["url=http:\/\/www.romoslagteren.dk\/"],["email=post@slagteroesta.dk"],["address=Prilen 2"],["lat=55.1342695"],["long=8.5488255"],["directions="],["phone=+45 29907516"],["tollfree="],["fax="],["hours="],["price="],["content=Butcher and delicatessen. Very helpful. Try the local lamb."]]}]},"\n",{"type":"==","value":[" Eat "]},"\n",{"type":"*","value":[" ",{"type":"{{","value":[["eat"],["name=Florandas Restaurant"],["alt="],["url=http:\/\/www.kommandoergaarden.dk\/weekend-ferie\/restaurant-br\/bar\/florandas-restaurant"],["email="],["address=Havnebyvej 201"],["lat=55.0997417"],["long=8.5431089"],["directions=In Hotel Kommandørgården"],["phone="],["tollfree="],["fax="],["hours="],["price="],["content=Steaks and Fish"]]}]},{"type":"*","value":[" ",{"type":"{{","value":[["eat"],["name=Havneby Kro"],["alt="],["url=http:\/\/www.havneby-kro.dk\/"],["email=info@havneby-kro.dk"],["address=SKansen 3, Havneby"],["lat=55.08692"],["long=8.5618"],["directions="],["phone="],["tollfree="],["fax="],["hours="],["price=DKK 200, In the summer all you can eat buffet for DKK 178"],["content=Solid Danish food. Good seafood."]]}]},{"type":"*","value":[" ",{"type":"{{","value":[["eat"],["name=Holms"],["alt="],["url=http:\/\/www.holmsrogeri.dk\/english"],["email=holms@holmsrogeri.dk"],["address=Nordre Havnevej 1"],["lat=55.0880827"],["long=8.5610576"],["directions=at the harbour in Havneby"],["phone=+45 74755066"],["tollfree="],["fax="],["hours="],["price=DKK 200 for a typical main course"],["content=Popular seafood restaurant."]]}]},"\n",{"type":"*","value":[" ",{"type":"{{","value":[["eat"],["name=Otto & Ani's Fisk"],["alt="],["url="],["email="],["address=Havnepladsen 6"],["lat=55.0865972"],["long=8.5653719"],["directions="],["phone=+45 74755306"],["tollfree="],["fax="],["hours="],["price="],["content=Very informal place with excellent fresh fish. The luxury seafood platter"]]}]},{"type":"*","value":[" ",{"type":"{{","value":[["eat"],["name=Ristorante Europa"],["alt="],["url="],["email="],["address=Vestergade 2, Havneby"],["lat=55.0868071"],["long=8.5600548"],["directions="],["phone= +45 74757460"],["tollfree="],["fax="],["hours=to 22:00"],["price=DKK 80"],["content=Pizzas and pasta. Eat at tables inside and outside."]]}]},"\n",{"type":"==","value":[" Drink "]},"\n",{"type":"*","value":[" ",{"type":"{{","value":[["drink"],["name=Cafe Skansen"],["alt="],["url=http:\/\/www.cafeskansen.dk\/"],["email=cafeskansen@yahoo.dk"],["address=Nordre Havnevej 32"],["lat=55.0872353"],["long=8.5611124"],["directions=Havneby"],["phone=+45 64647630"],["tollfree="],["fax="],["hours=from 11:00"],["price="],["content=Cafe and delicatessen with local product. Good selection of beers. Free Wifi."]]}]},"\n",{"type":"==","value":[" Sleep "]},"\n\n",{"type":"*","value":[" ",{"type":"{{","value":[["sleep"],["name=Rømø Hostel"],["alt="],["url=http:\/\/romovandrerhjem.dk\/"],["email="],["address=Lyngvejen 7"],["lat=55.0962854"],["long=8.5477012"],["directions="],["phone=+45 74755188"],["tollfree="],["fax="],["price=from DKK 195"],["checkin="],["checkout="],["content="]]}]},"\n",{"type":"*","value":[" ",{"type":"{{","value":[["sleep"],["name=Hotel Lakolk"],["alt="],["url=http:\/\/www.hotel-lakolk.dk\/"],["email=mail@hotel-lakolk.dk"],["address=Lakolk 150"],["lat=55.139379"],["long=8.493218"],["directions="],["phone=+45 74755145"],["tollfree="],["fax="],["price=DKK 800"],["checkin=14:00"],["checkout=12:00"],["content=Great location, you can walk right through the dunes to the wide beach. Also have 4-person family apartments with a small kitchen."]]}]},"\n",{"type":"==","value":[" Go Next "]},"\n\n",{"type":"*","value":[" ",{"type":"[[","value":[["Ribe"]]}," is a charming town 30 Km north of the Rømø causeway"]},{"type":"*","value":[" ",{"type":"[[","value":[["Sylt"]]}," Take the ferry to Sylt. A daypass is cheaper than a return ticket. If you go by car you can take the ferry to Sylt, then use the car-train from Sylt to Niebüll on mainland ",{"type":"[[","value":[["Germany"]]}," and drive back to Rømø."]},"\n",{"type":"{{","value":[["usablecity"]]},"\n",{"type":"{{","value":[["geo"],["55.1333"],["8.5167"]]},"\n\n",{"type":"{{","value":[["isPartOf"],["South Jutland"]]},"\n",{"type":"[[","value":[["Wikipedia:Rømø"]]},"\n\n",{"type":"[[","value":[["Commons:Category:Rømø"]]}]